{
"type": "FeatureCollection",
"name": "Sampled_Stations_Orinoco",
"features": [
{ "type": "Feature", "id": 1, "properties": { "CodigoEsta": 37055010, "NombreEsta": "AEROPUERTO SANTIAGO PÉREZ [37055010]", "Latitud": 7.069444444, "Longitud": -70.73805556000001, "Altitud": 128 }, "geometry": { "type": "Point", "coordinates": [ -70.738055559878973, 7.069444443931131 ] } },
{ "type": "Feature", "id": 2, "properties": { "CodigoEsta": 37050010, "NombreEsta": "ARAUQUITA [37050010]", "Latitud": 7.037222222, "Longitud": -71.41972222, "Altitud": 100 }, "geometry": { "type": "Point", "coordinates": [ -71.419722219729991, 7.037222222405321 ] } },
{ "type": "Feature", "id": 3, "properties": { "CodigoEsta": 37050040, "NombreEsta": "MATEZAMURO [37050040]", "Latitud": 6.974166667, "Longitud": -70.85166667, "Altitud": 150 }, "geometry": { "type": "Point", "coordinates": [ -70.851666670422304, 6.974166667423074 ] } },
{ "type": "Feature", "id": 4, "properties": { "CodigoEsta": 37050050, "NombreEsta": "VILLANUEVA [37050050]", "Latitud": 6.940277778, "Longitud": -70.26555556, "Altitud": 100 }, "geometry": { "type": "Point", "coordinates": [ -70.265555559895034, 6.940277777803072 ] } },
{ "type": "Feature", "id": 5, "properties": { "CodigoEsta": 35215020, "NombreEsta": "AEROPUERTO YOPAL - AUT [35215020]", "Latitud": 5.320444444, "Longitud": -72.3875, "Altitud": 325 }, "geometry": { "type": "Point", "coordinates": [ -72.38749999981863, 5.320444443947676 ] } },
{ "type": "Feature", "id": 6, "properties": { "CodigoEsta": 35180010, "NombreEsta": "PRADERA LA [35180010]", "Latitud": 4.937361111, "Longitud": -72.66588889000001, "Altitud": 180 }, "geometry": { "type": "Point", "coordinates": [ -72.665888889944185, 4.937361110631361 ] } },
{ "type": "Feature", "id": 7, "properties": { "CodigoEsta": 35190070, "NombreEsta": "SAN JOSE [35190070]", "Latitud": 5.091916667, "Longitud": -72.45858333, "Altitud": 190 }, "geometry": { "type": "Point", "coordinates": [ -72.458583329553193, 5.091916666981815 ] } },
{ "type": "Feature", "id": 8, "properties": { "CodigoEsta": 35250040, "NombreEsta": "ACEITICO [35250040]", "Latitud": 6.175416667, "Longitud": -68.39436111000001, "Altitud": 67 }, "geometry": { "type": "Point", "coordinates": [ -68.39436111027247, 6.175416667053189 ] } },
{ "type": "Feature", "id": 9, "properties": { "CodigoEsta": 38015030, "NombreEsta": "AEROPUERTO PUERTO CARRENO [38015030]", "Latitud": 6.182436111, "Longitud": -67.49122222, "Altitud": 57 }, "geometry": { "type": "Point", "coordinates": [ -67.491222220366481, 6.182436111156963 ] } },
{ "type": "Feature", "id": 10, "properties": { "CodigoEsta": 38017040, "NombreEsta": "CASUARITO [38017040]", "Latitud": 5.682694444, "Longitud": -67.64019444, "Altitud": 65 }, "geometry": { "type": "Point", "coordinates": [ -67.640194440167889, 5.682694444107361 ] } },
{ "type": "Feature", "id": 11, "properties": { "CodigoEsta": 35260030, "NombreEsta": "HATO BURRUNAY [35260030]", "Latitud": 5.351944444, "Longitud": -70.67827778, "Altitud": 106 }, "geometry": { "type": "Point", "coordinates": [ -70.678277780221009, 5.351944443981019 ] } },
{ "type": "Feature", "id": 12, "properties": { "CodigoEsta": 35250010, "NombreEsta": "LA AURORA [35250010]", "Latitud": 6.095611111, "Longitud": -69.42341667, "Altitud": 82 }, "geometry": { "type": "Point", "coordinates": [ -69.42341666976975, 6.095611110614446 ] } },
{ "type": "Feature", "id": 13, "properties": { "CodigoEsta": 38027020, "NombreEsta": "PUERTO NARIÑO [38027020]", "Latitud": 4.956861111, "Longitud": -67.83416667, "Altitud": 79 }, "geometry": { "type": "Point", "coordinates": [ -67.834166670229948, 4.956861110950799 ] } },
{ "type": "Feature", "id": 14, "properties": { "CodigoEsta": 33060010, "NombreEsta": "SANTA RITA [33060010]", "Latitud": 4.87, "Longitud": -68.36, "Altitud": 87 }, "geometry": { "type": "Point", "coordinates": [ -68.359999999727336, 4.87000000035981 ] } },
{ "type": "Feature", "id": 15, "properties": { "CodigoEsta": 35010020, "NombreEsta": "ACACIAS [35010020]", "Latitud": 3.994638889, "Longitud": -73.76558333, "Altitud": 525 }, "geometry": { "type": "Point", "coordinates": [ -73.765583329702011, 3.994638888614199 ] } },
{ "type": "Feature", "id": 16, "properties": { "CodigoEsta": 35130010, "NombreEsta": "LA PLATA [35130010]", "Latitud": 3.956083333, "Longitud": -72.76572222, "Altitud": 225 }, "geometry": { "type": "Point", "coordinates": [ -72.765722219604243, 3.956083332894308 ] } },
{ "type": "Feature", "id": 17, "properties": { "CodigoEsta": 35010080, "NombreEsta": "NARE [35010080]", "Latitud": 3.793888889, "Longitud": -73.14972222, "Altitud": 200 }, "geometry": { "type": "Point", "coordinates": [ -73.149722220286066, 3.79388888877933 ] } },
{ "type": "Feature", "id": 18, "properties": { "CodigoEsta": 35010010, "NombreEsta": "PUERTO LOPEZ [35010010]", "Latitud": 4.105027778, "Longitud": -72.9365, "Altitud": 182 }, "geometry": { "type": "Point", "coordinates": [ -72.936500000056, 4.105027778063974 ] } },
{ "type": "Feature", "id": 19, "properties": { "CodigoEsta": 32080010, "NombreEsta": "PUERTO RICO [32080010]", "Latitud": 2.94, "Longitud": -73.21, "Altitud": 230 }, "geometry": { "type": "Point", "coordinates": [ -73.210000000163802, 2.940000000136434 ] } }
]
}
